pref,city,intersection,hiragana,address,lat,lon
北海道,札幌市,北５条通り札幌駅前交差点,きたごじょうどおりさっぽろえきまえこうさてん,札幌市中央区北五条西四丁目,43.066768,141.350582
北海道,札幌市,北５条通り西５丁目線交差点,きたごじょうどおりにしごちょうめせんこうさてん,札幌市中央区北五条西五丁目,43.066546,141.348939
北海道,札幌市,北４条通り札幌駅前通り交差点,きたよじょうどおりさっぽろえきまえどおりこうさてん,札幌市中央区北四条西四丁目,43.06557,141.3508
北海道,札幌市,北４条通り西７丁目線交差点,きたよじょうどおりにしななちょうめせんこうさてん,札幌市中央区北四条西七丁目,43.064936,141.34613
北海道,札幌市,北４条通り西５丁目線交差点,きたよじょうどおりにしごちょうめせんこうさてん,札幌市中央区北四条西五丁目,43.065359,141.349238
北海道,札幌市,北４条通り西６丁目線交差点,きたよじょうどおりにしろくちょうめせんこうさてん,札幌市中央区北四条西六丁目,43.06515,141.347677
北海道,札幌市,北３条通り西７丁目線交差点,きたさんじょうどおりにしななちょうめせんこうさてん,札幌市中央区北二条西七丁目１番,43.06374,141.346427
北海道,札幌市,石山通米里行啓通交差点,いしやまどおりよねさとぎょうけいどおりこうさてん,札幌市中央区南十四条西十丁目１番,43.040827,141.343602
北海道,札幌市,石山通福住桑園通交差点,いしやまどおりふくずみそうえんどおりこうさてん,札幌市中央区南三十条西十一丁目,43.018757,141.346377
北海道,札幌市,行啓通西15丁目線交差点,ぎょうけいどおりにしじゅうごちょうめせんこうさてん,札幌市中央区南十四条西十五丁目２番,43.040326,141.33648
北海道,札幌市,米里行啓通西13丁目線交差点,よねさとぎょうけいどおりにしじゅうさんちょうめせんこうさてん,札幌市中央区南十四条西十三丁目３番,43.040582,141.340187
北海道,札幌市,米里行啓通西14丁目線交差点,よねさとぎょうけいどおりにしじゅうよんちょうめせんこうさてん,札幌市中央区南十四条西十四丁目,43.040445,141.338191
北海道,札幌市,米里行啓通西12丁目線交差点,よねさとぎょうけいどおりにしじゅうにちょうめせんこうさてん,札幌市中央区南十四条西十二丁目２番,43.040724,141.342161
北海道,札幌市,北２条通西８丁目線交差点,きたにじょうどおりにしはっちょうめせんこうさてん,札幌市中央区北二条西八丁目,43.062345,141.345238
北海道,札幌市,北３条通西８丁目線交差点,きたさんじょうどおりにしはっちょうめせんこうさてん,札幌市中央区北三条西八丁目,43.063524,141.345002
宮城県,仙台市,バスプール前交差点,ばすぷーるまえこうさてん,仙台市青葉区中央一丁目１番１号先（仙台駅バスプール北西角）,38.259729,140.879953
宮城県,仙台市,中央１丁目交差点,ちゅうおういっちょうめこうさてん,仙台市青葉区中央一丁目１０番２３号先,38.260849,140.879348
宮城県,仙台市,東一番丁・広瀬通交差点,ひがしいちばんちょうひろせどおりこうさてん ,仙台市青葉区一番町三丁目１１番１５号先,38.262401,140.871409
宮城県,仙台市,中央２丁目交差点,ちゅうおうにちょうめこうさてん,仙台市青葉区中央一丁目６番１８号先,38.262999,140.878074
宮城県,仙台市,錦町公園前交差点,にしきちょうこうえんまえこうさてん ,仙台市青葉区本町三丁目１番１号先,38.267085,140.87568
宮城県,仙台市,東二番丁・広瀬通交差点,ひがしにばんちょうひろせどおりこうさてん ,仙台市青葉区中央二丁目９番１６号先,38.262788,140.873518
宮城県,仙台市,北一番丁勾当台通交差点,きたいちばんちょうこうとうだいどおりこうさてん,仙台市青葉区本町三丁目８番１号先(北西角),38.268731,140.870082
宮城県,仙台市,東二番丁・定禅寺通交差点,ひがしにばんちょうじょうぜんじどおりこうさてん ,仙台市青葉区一番町四丁目１１番１号先,38.26616,140.871516
宮城県,仙台市,愛宕上杉中央通交差点,あたごかみすぎちゅうおうどおりこうさてん,仙台市青葉区中央一丁目８番１９号先,38.261774,140.878811
宮城県,仙台市,駅前広瀬交差点,えきまえひろせこうさてん,仙台市青葉区本町一丁目１番１号先,38.263151,140.880528
宮城県,仙台市,駅前名掛丁交差点,えきまえなかけちょうこうさてん,仙台市青葉区中央一丁目７番１号先,38.262146,140.880837
宮城県,仙台市,広瀬・晩翠通交差点,ひろせばんすいどおりこうさてん ,仙台市青葉区国分町二丁目３番９号先,38.261765,140.867936
宮城県,仙台市,定禅寺・国分町通交差点,じょうぜんじこくぶんちょうどおりこうさてん,仙台市青葉区国分町三丁目２番５号先,38.265684,140.868947
宮城県,仙台市,広瀬・国分町通交差点,ひろせこくぶんちょうどおりこうさてん ,仙台市青葉区国分町二丁目２番２号先,38.262159,140.870099
宮城県,仙台市,定禅寺・晩翠通交差点,じょうぜんじばんすいどおりこうさてん ,仙台市青葉区立町２７番２６号先,38.265281,140.8668
宮城県,仙台市,県庁市役所前交差点,けんちょうしやくしょまえこうさてん,仙台市青葉区本町三丁目８番１号先(議会庁舎南西角),38.267446,140.870682
宮城県,仙台市,市民会館前交差点,しみんかいかんまえこうさてん,仙台市青葉区桜ケ岡公園４番１号先（南東角から南方30m）,38.264681,140.863498
宮城県,仙台市,定禅寺・東三番丁交差点,じょうぜんじひがしさんばんちょうこうさてん ,仙台市青葉区本町三丁目９番先（勾当台公園南東角）,38.266454,140.872955
宮城県,仙台市,五ツ橋交差点,いつつばしこうさてん,仙台市青葉区五橋二丁目２番１号先,38.252725,140.879467
宮城県,仙台市,勾当台通北二交差点,こうとうだいどおりきたにこうさてん,仙台市青葉区二日町１２番３４号先,38.269911,140.869722
宮城県,仙台市,定禅寺・木町通交差点,じょうぜんじきまちどおりこうさてん ,仙台市青葉区春日町３番１号先(土地番),38.264906,140.864792
宮城県,仙台市,定禅寺・東一番丁交差点,じょうぜんじひがしいちばんちょうこうさてん ,仙台市青葉区国分町三丁目１番３号先,38.265939,140.870287
宮城県,仙台市,仙台中央警察署前交差点,せんだいちゅうおうけいさつしょまえこうさてん,仙台市青葉区北目町１番１８号先,38.254015,140.878681
宮城県,仙台市,定禅寺・錦町交差点,じょうぜんじにしきちょうこうさてん ,仙台市青葉区花京院二丁目１番１８号先,38.267814,140.879289
宮城県,仙台市,福祉プラザ前交差点,ふくしぷらざまえこうさてん,仙台市青葉区五橋二丁目１２番２号先,38.251271,140.880737
宮城県,仙台市,東六番丁・錦町交差点,ひがしろくばんちょうにしきちょうこうさてん ,仙台市青葉区宮町一丁目１番３８号先,38.26865,140.883695
宮城県,仙台市,たいはっくる前交差点,たいはっくるまえこうさてん,仙台市太白区長町三丁目４番１６号先,38.228664,140.884934
宮城県,仙台市,松ケ丘交差点,まつがおかこうさてん,仙台市太白区八木山本町一丁目３８番７号先,38.240723,140.848047
宮城県,仙台市,長町駅前交差点,ながまちえきまえこうさてん ,仙台市太白区長町五丁目１番１号先(南西角),38.226413,140.884916
宮城県,仙台市,八木山本町二丁目交差点,やぎやまほんちょうにちょうめこうさてん ,仙台市太白区八木山本町二丁目４番１１号先,38.241453,140.841349
宮城県,仙台市,八木山南一丁目交差点,やぎやまみなみいっちょうめこうさてん ,仙台市太白区八木山南一丁目１番１２号先,38.235047,140.836975
宮城県,仙台市,八木山小学校前交差点,やぎやましょうがっこうまえこうさてん ,仙台市太白区八木山本町一丁目３９番２号先,38.239642,140.847149
宮城県,仙台市,南郵便局前交差点,みなみゆうびんきょくまえこうさてん ,仙台市太白区長町八丁目２２番１０号先,38.228238,140.877243
宮城県,仙台市,長町五丁目交差点,ながまちごちょうめこうさてん ,仙台市太白区長町五丁目１０番４５号先,38.225629,140.881692
宮城県,仙台市,太白区役所前交差点,たいはくくやくしょまえこうさてん ,仙台市太白区長町南一丁目１番１号先,38.2249,140.878296
宮城県,仙台市,地下鉄長町南駅西側交差点,ちかてつながまちみなみえきにしがわこうさてん ,仙台市太白区長町南四丁目１番１号先（北東角）,38.224215,140.874455
宮城県,仙台市,長町七丁目交差点,ながまちななちょうめこうさてん ,仙台市太白区長町七丁目２０番１５号先,38.226905,140.877755
宮城県,仙台市,太子堂駅入口交差点,たいしどうえきいりぐちこうさてん,仙台市太白区あすと長町三丁目３番３１号先,38.218151,140.885387
宮城県,仙台市,あすと長町一丁目南交差点,あすとながまちいっちょうめみなみこうさてん,仙台市太白区あすと長町四丁目１番先(南西角),38.226159,140.887414
宮城県,仙台市,あすと長町一丁目北交差点,あすとながまちいっちょうめきたこうさてん,仙台市太白区郡山一丁目８番６０号先（南西角）,38.228166,140.888437
宮城県,仙台市,長町駅入口交差点,ながまちえきいりぐちこうさてん,仙台市太白区あすと長町四丁目１番６０号先(南西角),38.227208,140.887765
宮城県,仙台市,富沢四丁目交差点,とみざわよんちょうめこうさてん,仙台市太白区富沢四丁目２番先（南西角）,38.215045,140.868921
宮城県,仙台市,八木山小学校南東交差点,やぎやましょうがっこうなんとうこうさてん,仙台市太白区八木山本町一丁目４０番１号先,38.237685,140.849518
宮城県,仙台市,あすと長町一丁目西交差点,あすとながまちいっちょうめにしこうさてん,仙台市太白区あすと長町一丁目４番３０９号先,38.228566,140.886181
宮城県,仙台市,八木山動物公園駅前交差点,やぎやまどうぶつこうえんえきまえこうさてん,仙台市太白区八木山本町一丁目２８番１３号先,38.242679,140.84306
宮城県,仙台市,北四番丁・勾当台通交差点,きたよばんちょうこうとうだいどおりこうさてん,仙台市青葉区上杉一丁目１７番１８号先,38.272211,140.869042
宮城県,仙台市,東北大学病院正門前交差点,とうほくだいがくびょういんせいもんまえこうさてん ,仙台市青葉区星陵町１番１号先（南側）,38.270941,140.861728
宮城県,仙台市,上杉６丁目交差点,かみすぎろくちょうめこうさてん,仙台市青葉区上杉六丁目２番３０号先,38.275421,140.873539
宮城県,仙台市,附属小学校入口交差点,ふぞくしょうがっこういりぐちこうさてん,仙台市青葉区上杉五丁目８番７３号先,38.275916,140.877132
宮城県,仙台市,北四番丁・晩翠通交差点,きたよばんちょうばんすいどおりこうさてん,仙台市青葉区木町通二丁目２番１６号先,38.271483,140.864879
宮城県,仙台市,北仙台駅入口交差点,きたせんだいえきいりぐちこうさてん,仙台市青葉区昭和町４番３号先,38.279638,140.869647
宮城県,仙台市,北四番丁・大衡仙台線交差点,きたよばんちょうおおひらせんだいせんこうさてん ,仙台市青葉区木町通二丁目３番１９号先,38.271144,140.862814
宮城県,仙台市,北四番丁・国分町通交差点,きたよばんちょうこくぶんちょうどおりこうさてん,仙台市青葉区二日町１７番２７号先,38.271839,140.866876
宮城県,仙台市,視覚支援学校入口交差点,しかくしえんがっこういりぐちこうさてん,仙台市青葉区梅田町１番２号先,38.276148,140.879303
宮城県,仙台市,北四番丁・外記丁交差点,きたよばんちょうげきちょうこうさてん ,仙台市青葉区上杉二丁目２番１号先,38.272719,140.872033
宮城県,仙台市,勾当台通・北三交差点,こうとうだいどおりきたさんこうさてん,仙台市青葉区上杉一丁目１７番７号先,38.271144,140.869363
宮城県,仙台市,宮町小田原北一交差点,みやまちおだわらきたいちこうさてん ,仙台市青葉区宮町二丁目１番５２号先,38.27062,140.883924
宮城県,仙台市,愛子駅入口交差点,あやしえきいりぐちこうさてん,仙台市青葉区上愛子字上町１３番１号先,38.271039,140.761557
宮城県,仙台市,昭和町交差点,しょうわまちこうさてん,仙台市青葉区昭和町１番５０号先,38.27987,140.872402
宮城県,仙台市,上杉１丁目交差点,かみすぎいっちょうめこうさてん,仙台市青葉区上杉二丁目１番５０号先,38.273054,140.873987
宮城県,仙台市,北四番丁・堤通交差点,きたよばんちょうつつみどおりこうさてん ,仙台市青葉区上杉二丁目３番１号先,38.27245,140.870526
宮城県,仙台市,上杉山中学校前,かみすぎやまちゅうがっこうまえ,仙台市青葉区堤通雨宮町１番１号先,38.277964,140.872962
宮城県,仙台市,北三・西公園通交差点,きたさん・にしこうえんどおりこうさてん,仙台市青葉区木町通一丁目８番８号先,38.269741,140.862085
宮城県,仙台市,北五・上杉交差点,きたごかみすぎこうさてん,仙台市青葉区上杉二丁目１０番５７号先,38.274203,140.873754
宮城県,仙台市,落合交差点,おちあいこうさてん,仙台市青葉区落合一丁目１７番１５号先,38.272589,140.790458
宮城県,仙台市,北四番丁・宮町通交差点,きたよばんちょうみやまちどおりこうさてん,仙台市青葉区宮町三丁目８番３３号先,38.274213,140.884358
宮城県,仙台市,上杉４丁目郵便局前交差点,かみすぎよんちょうめゆうびんきょくまえこうさてん,仙台市青葉区上杉四丁目５番２４号先,38.274036,140.879704
宮城県,仙台市,苦竹一丁目交差点,にがたけいっちょうめこうさてん,仙台市宮城野区苦竹一丁目８番２号先,38.268645,140.917194
宮城県,仙台市,苦竹駅前,にがたけえきまえ,仙台市宮城野区苦竹一丁目７番３３号先,38.268978,140.919041
宮城県,仙台市,総合運動場前交差点,そうごううんどうじょうまえこうさてん,仙台市宮城野区宮城野一丁目９番１４号先,38.258445,140.902019
宮城県,仙台市,仙台駅東口交差点,せんだいえきひがしぐちこうさてん,仙台市宮城野区榴岡一丁目２番１号先,38.259887,140.884731
宮城県,仙台市,榴岡２丁目交差点,つつじがおかにちょうめこうさてん,仙台市宮城野区榴岡二丁目５番２６号先,38.259747,140.886156
宮城県,仙台市,岩切駅前交差点,いわきりえきまえこうさてん,仙台市宮城野区岩切字洞ノ口１９０番１１号先,38.301394,140.954531
宮城県,仙台市,榴岡公園北側交差点,つつじがおかこうえんきたがわこうさてん,仙台市宮城野区榴ケ岡５番先,38.262012,140.894538
宮城県,仙台市,榴岡４丁目交差点,つつじがおかよんちょうめこうさてん,仙台市宮城野区榴岡三丁目１０番７号先,38.259105,140.891722
宮城県,仙台市,榴岡図書館東側交差点,つつじがおかとしょかんひがしがわこうさてん,仙台市宮城野区榴岡三丁目８番１号先,38.259393,140.889153
宮城県,仙台市,総合グランド交番前交差点,そうごうぐらんどこうばんまえこうさてん ,仙台市宮城野区宮城野一丁目９番１７号先,38.257946,140.901547
宮城県,仙台市,仙台サンプラザ前交差点,せんだいさんぷらざまえこうさてん,仙台市宮城野区宮城野一丁目１番２号先,38.258734,140.894848
宮城県,仙台市,榴ヶ岡交差点,つつじがおかこうさてん,仙台市宮城野区榴岡三丁目１１番１８号先,38.260559,140.892014
宮城県,仙台市,二十人町交差点,にじゅうにんまちこうさてん,仙台市宮城野区二十人町３０９番２０号先,38.262245,140.892359
宮城県,仙台市,鉄砲町西交差点,てっぽうまちにしこうさてん,仙台市宮城野区鉄砲町西２番１１号先,38.263785,140.886877
宮城県,仙台市,岩切分台１丁目交差点,いわきりぶんだいいっちょうめこうさてん,仙台市宮城野区岩切字青津目１２１番５号先,38.303477,140.955069
宮城県,仙台市,二十人町西２番交差点,にじゅうにんまちにしにばんこうさてん,仙台市宮城野区二十人町３０１番２０号先,38.262843,140.886703
宮城県,仙台市,二十人町西１番交差点,にじゅうにんまちにしいちばんこうさてん,仙台市宮城野区二十人町３０２番１２号先,38.262548,140.889548
宮城県,仙台市,泉中央交差点,いずみちゅうおうこうさてん,仙台市泉区泉中央四丁目３番１号先,38.322446,140.882947
宮城県,仙台市,イズミティ２１前交差点,いずみてぃにじゅういちまえこうさてん,仙台市泉区泉中央二丁目１８番１号先,38.325302,140.880478
宮城県,仙台市,泉区役所前交差点,いずみくやくしょまえこうさてん,仙台市泉区泉中央二丁目１番１号先,38.325359,140.882883
宮城県,仙台市,泉中央駅前交差点,いずみちゅうおうえきまえこうさてん,仙台市泉区泉中央一丁目１３番４号先,38.322393,140.880509
宮城県,仙台市,仙台スタジアム前交差点,せんだいすたじあむまえこうさてん,仙台市泉区泉中央四丁目１番３号先,38.320852,140.882935
宮城県,仙台市,支援センター入口交差点,しえんせんたーいりぐちこうさてん,仙台市泉区泉中央二丁目１番５６号先,38.327219,140.880379
宮城県,仙台市,泉中央駅西口交差点,いずみちゅうおうえきにしぐちこうさてん,仙台市泉区泉中央一丁目１５番２号先,38.323882,140.880475
宮城県,仙台市,将監西小学校入口交差点,しょうげんにししょうがっこういりぐちこうさてん,仙台市泉区将監十丁目２６番１６号先,38.334911,140.868526
宮城県,仙台市,東一番丁青葉通交差点,ひがしいちばんちょうあおばどおりこうさてん,仙台市青葉区一番町二丁目４番１９号先,38.259641,140.872291
宮城県,仙台市,花京院交差点,かきょういんこうさてん,仙台市青葉区花京院一丁目１番２０号先,38.265926,140.879738
宮城県,仙台市,東二番丁中央通交差点,ひがしにばんちょうちゅうおうどおりこうさてん,仙台市青葉区中央二丁目３番１８号先,38.260948,140.874598
宮城県,仙台市,東七番丁車通り二十人町交差点,ひがしななばんちょうくるまどおりにじゅうにんまちこうさてん,仙台市宮城野区名掛丁２０６番２２号先,38.262951,140.885358
宮城県,仙台市,北六･外記丁交差点,きたろくげきちょうこうさてん,仙台市青葉区上杉二丁目９番２１号先,38.275178,140.871488
宮城県,仙台市,本町二丁目銀杏坂交差点,ほんちょうにちょうめいちょうざかこうさてん,仙台市青葉区本町二丁目１０番２８号先,38.264522,140.877239
宮城県,仙台市,勾当台通・北六交差点,こうとうだいどおりきたろくこうさてん,仙台市青葉区上杉二丁目４番２６号先,38.274708,140.868394
宮城県,仙台市,勾当台通・北七交差点,こうとうだいどおりきたななこうさてん,仙台市青葉区柏木一丁目１番５０号先,38.27576,140.868115
宮城県,仙台市,中江幸町交差点,なかえさいわいちょうこうさてん,仙台市宮城野区幸町五丁目１番１７号先,38.273005,140.899055
宮城県,仙台市,幸町さいわい幼稚園前,さいわいちょうさいわいようちえんまえ,仙台市宮城野区幸町三丁目３番３号先,38.276553,140.899073
宮城県,仙台市,幸町南小学校北側交差点,さいわいちょうみなみしょうがっこうきたがわこうさてん,仙台市宮城野区幸町二丁目２２番３４号先,38.274772,140.899058
宮城県,大崎市,十日町交差点,とおかまちこうさてん,大崎市古川十日町６番１号先,38.575138,140.959748
宮城県,大崎市,大崎市役所南側交差点,おおさきしやくしょみなみがわこうさてん,大崎市古川七日町１番６号先,38.576401,140.956285
宮城県,大崎市,駅前大通交差点,えきまえおおどおりこうさてん,大崎市古川台町７番１５号先,38.573678,140.964765
宮城県,大崎市,保健福祉プラザ入口交差点,ほけんふくしぷらざいりぐちこうさてん,大崎市古川荒川小金町９番１８号先（北向側）,38.572834,140.959061
宮城県,大崎市,大崎市医師会館前交差点,おおさきしいしかいかんまえこうさてん,大崎市古川駅前大通二丁目４番４１号先,38.573357,140.966461
宮城県,大崎市,年金事務所北側交差点,ねんきんじむしょきたがわこうさてん,大崎市古川駅南二丁目２番１号先,38.568584,140.968479
宮城県,大崎市,古川駅北東角交差点,ふるかわえきほくとうかどこうさてん,大崎市古川駅東二丁目１番５号先,38.572929,140.968699
宮城県,大崎市,古川駅前大通二丁目交差点,ふるかわえきまえおおどおりにちょうめこうさてん ,大崎市古川駅前大通一丁目５番３号先,38.572181,140.966086
宮城県,大崎市,新幹線古川駅西側交差点,しんかんせんふるかわえきにしがわこうさてん ,大崎市古川駅前大通一丁目３番８号先,38.572525,140.96439
宮城県,大崎市,古川駅南東角交差点,ふるかわえきなんとうかどこうさてん,大崎市古川駅南二丁目２番１号先,38.568728,140.967667
宮城県,大崎市,ハローワーク北側交差点,はろーわ－くきたがわこうさてん,大崎市古川中里六丁目３番３６号先（東向側）,38.567292,140.967087
宮城県,大崎市,裁判所東側交差点,さいばんしょひがしがわこうさてん,大崎市古川駅南二丁目９番４６号先,38.566567,140.970783
宮城県,大崎市,合同庁舎西側交差点,ごうどうちょうしゃにしがわこうさてん,大崎市古川旭四丁目１番１号先（南西角）,38.566026,140.973579
宮城県,大崎市,合同庁舎北側交差点,ごうどうちょうしゃきたがわこうさてん,大崎市古川旭三丁目８番３３号先,38.567489,140.974033
宮城県,大崎市,大崎合同庁舎北東交差点,おおさきごうどうちょうしゃほくとうこうさてん ,大崎市古川旭三丁目８番１８号先,38.566998,140.976709
宮城県,大崎市,あさひ西公園北側交差点,あさひにしこうえんきたがわこうさてん,大崎市古川旭一丁目１０番２４号先,38.568052,140.971253
宮城県,大崎市,古川第五小学校入口交差点,ふるかわだいごしょうがっこういりぐちこうさてん ,大崎市古川穂波二丁目８番６号先,38.566769,140.94497
宮城県,大崎市,穂波の郷西交差点,ほなみのさとにしこうさてん,大崎市古川穂波七丁目２番１１号先,38.5666,140.940285
宮城県,大崎市,穂波の郷中央交差点 ,ほなみのさとちゅうおうこうさてん,大崎市古川穂波七丁目２番囲先（南東角）,38.566559,140.942912
宮城県,石巻市,石巻駅西入口交差点,いしのまきえきにしいりぐちこうさてん,石巻市穀町１４番９号先,38.434095,141.301956
宮城県,石巻市,石巻市役所前,いしのまきしやくしょまえ,石巻市穀町１４番１号先,38.434696,141.303305
宮城県,名取市,手倉田大橋南たもと交差点,てくらだおおはしみなみたもとこうさてん,名取市手倉田字堰根３８８番１号先,38.173069,140.875924
宮城県,名取市,名取駅西口交差点,なとりえきにしぐちこうさてん,名取市手倉田字八幡４２３番１号先,38.173269,140.879824
宮城県,東松島市,東松島市役所鳴瀬庁舎前,ひがしまつしましやくしょなるせちょうしゃまえ,東松島市小野字新宮前５番先,38.399553,141.163925
宮城県,利府町,利府消防署南側交差点,りふしょうぼうしょみなみがわこうさてん,宮城郡利府町利府字堀切前１５番１号先,38.328987,140.973243
宮城県,利府町,利府街道役場入口交差点,りふかいどうやくばいりぐちこうさてん,宮城郡利府町加瀬字新前谷地１０番１号先,38.328939,140.976721
宮城県,利府町,利府郵便局前交差点,りふゆうびんきょくまえこうさてん,宮城郡利府町中央二丁目８番１号先,38.328825,140.981539
宮城県,利府町,利府駅西側交差点,りふえきにしがわこうさてん,宮城郡利府町中央二丁目７番１号先,38.329089,140.982995
宮城県,利府町,第１駐車場前交差点,だいいちちゅうしゃじょうまえこうさてん,宮城郡利府町菅谷台三丁目３番１号先,38.330744,140.950717
宮城県,利府町,宮城県総合運動公園入口交差点,みやぎけんそうごううんどうこうえんいりぐちこうさてん,宮城郡利府町菅谷字舘４０番１号先,38.334366,140.955342
宮城県,利府町,第１駐車場北側交差点,だいいちちゅうしゃじょうきたがわこうさてん,宮城郡利府町菅谷台三丁目３０番１号先,38.332756,140.951797
宮城県,大河原町,大河原駅前交差点,おおがわらえきまえこうさてん,柴田郡大河原町大谷字町向１１６番２４号先,38.04779,140.738882
秋田県,秋田市,社会福祉会館前交差点,しゃかいふくしかいかんまえこうさてん,秋田市旭北栄町１番５号先,39.720531,140.108449
秋田県,秋田市,千秋公園入口交差点,せんしゅうこうえんいりぐちこうさてん,秋田市中通一丁目４番１号先,39.718037,140.122226
福島県,福島市,天神町交差点,てんじんちょうこうさてん,福島市曽根田町８番２０号先,37.759645,140.461242
福島県,福島市,曽根田駅前交差点,そねだえきまえこうさてん,福島市曽根田町８番９号先,37.76034,140.460644
福島県,郡山市,ホテルアネックス前交差点,ほてるあねっくすまえこうさてん,郡山市中町１０番８号先,37.398185,140.384754
福島県,郡山市,ベニマル菜根店前交差点,べにまるさいこんてんまえこうさてん,郡山市菜根一丁目２６番先,37.3866,140.361459
福島県,郡山市,郡山駅前南交差点,こおりやまえきまえみなみこうさてん,郡山市駅前一丁目１６番５号先,37.397141,140.38715
福島県,会津若松市,神明通り南交差点,しんめいどおりみなみこうさてん,会津若松市中町１番１号先,37.495332,139.928008
福島県,会津若松市,山鹿町交差点,やまがまちこうさてん,会津若松市山鹿町３番２４号先,37.491267,139.921623
福島県,会津若松市,神明通り北交差点,しんめいどおりきたこうさてん,会津若松市大町一丁目１０番の２８先,37.498407,139.928637
福島県,いわき市,小太郎公園前交差点,こたろうこうえんまえこうさてん,いわき市平字小太郎町３番先,37.051169,140.893036
福島県,いわき市,平中町交差点,たいらなかまちこうさてん,いわき市平字中町１４番の４先,37.053493,140.890081
福島県,南相馬市,市役所前交差点,しやくしょまえこうさてん,いわき市平字梅本２番先,37.051091,140.888344
東京都,新宿区,諏訪町信号,すわちょうしんごう,東京都新宿区戸山三丁目２０番２号先,35.70841,139.709105
東京都,新宿区,コズミックセンター前信号,こずみっくせんたーまえしんごう,東京都新宿区戸山三丁目１５番１号先,35.704787,139.708672
東京都,新宿区,戸塚警察前信号,とつかけいさつまえしんごう,東京都新宿区西早稲田三丁目３０番１３号先,35.71352,139.710862
東京都,新宿区,児童センター前信号,じどうせんたーまえしんごう,東京都新宿区大久保三丁目４番１号先,35.706053,139.708813
東京都,新宿区,戸山高校前信号,とやまこうこうまえしんごう,東京都新宿区大久保三丁目１４番９号先,35.707074,139.708951
東京都,新宿区,高戸橋信号,たかとばししんごう,東京都新宿区西早稲田三丁目３１番１１号先,35.714368,139.711348
東京都,新宿区,ビッグボックス側信号,びっくぼっくすがわしんごう,東京都新宿区高田馬場一丁目２７番８号先,35.712796,139.704705
東京都,新宿区,戸塚出張所前信号,とつかしゅっちょうじょまえしんごう,東京都新宿区高田馬場一丁目５番１６号先,35.711816,139.708281
東京都,新宿区,高田馬場二丁目信号,たかだのばばにちょうめしんごう,東京都新宿区高田馬場二丁目１４番２号先,35.712254,139.707056
東京都,新宿区,戸塚第二小学校前信号,とつかだいにしょうがっこうまえしんごう,東京都新宿区高田馬場一丁目２５番２１号先,35.71281,139.706069
東京都,新宿区,玄国寺前信号,げんこくじまえしんごう,東京都新宿区高田馬場一丁目１３番１号先,35.708674,139.706446
東京都,新宿区,保善高校前信号,ほぜんこうこうまえしんごう,東京都新宿区高田馬場一丁目２１番６号先,35.709036,139.704354
東京都,新宿区,大久保スポーツプラザ前信号,おおくぼすぽーつぷらざまえしんごう,東京都新宿区高田馬場一丁目３１番１８号先,35.709279,139.70329
東京都,新宿区,高田馬場口信号,たかだのばばぐちしんごう,東京都新宿区西早稲田二丁目２１番１２号先,35.711496,139.710023
東京都,新宿区,高田馬場口南信号,たかだのばばぐちみなみしんごう,東京都新宿区西早稲田二丁目２１番４号先,35.71021,139.709646
茨城県,水戸市,南町３丁目交差点,みなみまちさんちょうめこうさてん,水戸市南町三丁目４番2５号先,36.377497,140.466875
茨城県,水戸市,文化センター入口交差点,ぶんかせんたーいりぐちこうさてん,水戸市千波町６９７番地先,36.367699,140.468185
茨城県,水戸市,駅南中央交差点,えきなんちゅうおうこうさてん,水戸市城南一丁目４番２７号先,36.366832,140.475446
茨城県,水戸市,水戸市役所入口交差点,みとしやくしょいりぐちこうさてん,水戸市中央一丁目２番２０号先,36.367369,140.470933
茨城県,石岡市,石岡駅西口交差点,いしおかえきにしぐちこうさてん,石岡市国府一丁目２番２号先,36.190937,140.279467
茨城県,ひたちなか市,勝田駅入口交差点,かつたえきいりぐちこうさてん,ひたちなか市勝田中央６番１号先,36.394672,140.526372
茨城県,ひたちなか市,東石川1丁目交差点,ひがしいしかわいっちょうめこうさてん,ひたちなか市東石川三丁目１番７号先,36.394863,140.532642
茨城県,ひたちなか市,商工会館前交差点,しょうこうかいかんまえこうさてん,ひたちなか市勝田中央１４番８号先,36.3948,140.530129
茨城県,日立市,大みか駅前交差点,おおみかえきまえこうさてん,日立市大みか町二丁目２６番８号先,36.512817,140.620772
茨城県,日立市,日立駅前交差点,ひたちえきまえこうさてん,日立市平和町一丁目１番１号先,36.592297,140.660815
茨城県,笠間市,八雲１丁目交差点,やくもいっちょうめこうさてん,笠間市八雲一丁目１番４号先,36.349043,140.307179
茨城県,土浦市,土浦駅前郵便局西交差点,つちうらえきまえゆうびんきょくにしこうさてん,土浦市大和町５番５号先,36.079161,140.2037
栃木県,宇都宮市,本町交差点,ほんちょうこうさてん,宇都宮市本町４番１１号,36.56156,139.883041
栃木県,宇都宮市,総合福祉センター前交差点,そうごうふくしせんたーまえこうさてん,宇都宮市中央一丁目５番１号,36.558994,139.883017
栃木県,宇都宮市,総合福祉センター西交差点,そうごうふくしせんたーにしこうさてん,宇都宮市中央一丁目７番１号,36.559049,139.881986
栃木県,宇都宮市,オリオンスクエアー南交差点,おりおんすくえあーみなみこうさてん,宇都宮市中央一丁目１番１号,36.559771,139.881978
群馬県,前橋市,新前橋駅前交差点,しんまえばしえきまえこうさてん,前橋市新前橋町１８番地３５先,36.378114,139.04821
群馬県,前橋市,盲学校北東交差点,もうがっこうほくとうこうさてん,前橋市南町四丁目７番地１先,36.378042,139.069587
埼玉県,さいたま市,県庁第二庁舎入口交差点,けんちょうだいにちょうしゃいりぐちこうさてん,さいたま市浦和区仲町四丁目１番１号先,35.858863,139.647063
埼玉県,さいたま市,南浦和駅入口交差点,みなみうらわえきいりぐちこうさてん,さいたま市南区南浦和二丁目３６番先,35.847721,139.669941
埼玉県,さいたま市,大宮区役所入口交差点,おおみやくやくしょいりぐちこうさてん,さいたま市大宮区吉敷町一丁目１２４番地先,35.902156,139.629843
埼玉県,川越市,霞ヶ関小学校東交差点,かすみがせきしょうがっこうひがしこうさてん,川越市笠幡４６番地２号先,35.912305,139.423613
埼玉県,川越市,市役所前交差点,しやくしょまえこうさてん,川越市元町一丁目３番１号先,35.924749,139.485355
埼玉県,三郷市,ロータリー北横断路,ろーたりーきたおうだんろ,三郷市中央一丁目１０番地先,35.823984,139.877367
千葉県,千葉市,松波２丁目交差点,まつなみにちょうめこうさてん,千葉市中央区松波二丁目１０番１号,35.619713,140.106892
千葉県,四街道市,四街道消防署前交差点,よつかいどうしょうぼうしょまえこうさてん,四街道市四街道一丁目２１番１３号,35.666354,140.164458
神奈川県,横浜市,馬車道交差点,ばしゃみちこうさてん,横浜市中区尾上町四丁目５１番地,35.446263,139.635053
神奈川県,横浜市,尾上町交差点,おのえちょうこうさてん,横浜市中区尾上町三丁目４７番地,35.445806,139.635852
神奈川県,横浜市,ハマスタ入口交差点,はますたいりぐちこうさてん,横浜市中区尾上町一丁目,35.444084,139.638923
神奈川県,横浜市,関内駅南口交差点,かんないえきみなみぐちこうさてん,横浜市中区港町一丁目１番地,35.442968,139.638147
神奈川県,横浜市,港郵便局前交差点,みなとゆうびんきょくまえこうさてん,横浜市中区日本大通５番３号,35.44681,139.642657
神奈川県,横浜市,大さん橋入口交差点,おおさんばしいりぐちこうさてん,横浜市中区日本大通１２番地,35.446171,139.64373
神奈川県,横浜市,県庁前交差点,けんちょうまえこうさてん,横浜市中区日本大通１番地１号,35.447426,139.641602
神奈川県,横浜市,弁天橋交差点,べんてんばしこうさてん,横浜市中区本町六丁目５０番１０号,35.449771,139.633818
神奈川県,横浜市,関内駅北口交差点,かんないえききたぐちこうさてん,横浜市中区港町三丁目４番４５号,35.445097,139.635176
神奈川県,横浜市,中区役所前交差点,なかくやくしょまえこうさてん,横浜市中区山下町１９５番地,35.444357,139.642293
神奈川県,横浜市,尾上町１丁目交差点,おのえちょういっちょうめこうさてん,横浜市中区尾上町二丁目２５番地,35.44473,139.637856
神奈川県,横浜市,日本大通り入口交差点,にほんおおどおりいりぐちこうさてん,横浜市中区日本大通３５番地,35.444997,139.642821
神奈川県,横浜市,尾上町２丁目交差点,おのえちょうにちょうめこうさてん,横浜市中区尾上町二丁目２７番地,35.445291,139.636756
神奈川県,横浜市,相生町１丁目交差点,あいおいちょういっちょうめこうさてん,横浜市中区相生町一丁目１７番,35.445504,139.640114
神奈川県,横浜市,横浜公園交差点,よこはまこうえんこうさてん,横浜市中区日本大通３４番地,35.444931,139.641203
神奈川県,横浜市,水町通り入口交差点,みずまちどおりいりぐちこうさてん,横浜市中区山下町１番地,35.447129,139.644474
神奈川県,横浜市,本町５丁目交差点,ほんちょうごちょうめこうさてん,横浜市中区本町五丁目４７番地,35.450093,139.636334
神奈川県,横浜市,市役所交差点,しやくしょこうさてん,横浜市中区本町六丁目５０番地,35.450893,139.634955
神奈川県,横浜市,桜木町駅入口交差点,さくらぎちょうえきいりぐちこうさてん,横浜市中区桜木町一丁目１番地,35.449902,139.632811
神奈川県,横浜市,横浜駅西口交差点,よこはまえきにしぐちこうさてん,横浜市西区北幸一丁目３番２３号,35.467254,139.620982
神奈川県,横浜市,かながわ県民センター前交差点,かながわけんみんせんたーまえこうさてん,横浜市神奈川区鶴屋町二丁目２４番地３号,35.46813,139.621132
神奈川県,横浜市,新横浜2丁目交差点,しんよこはまにちょうめこうさてん,横浜市港北区新横浜三丁目１８番１号,35.509656,139.616577
神奈川県,横浜市,新横浜2丁目北側交差点,しんよこはまにちょうめきたがわこうさてん,横浜市港北区新横浜三丁目１９番１号,35.510221,139.615927
神奈川県,横浜市,鳥山大橋際交差点,とりやまおおはしぎわこうさてん,横浜市港北区新横浜二丁目１５番１０号,35.511211,139.614766
神奈川県,横浜市,新横浜駅前公園入口交差点,しんよこはまえきまえこうえんいりぐちこうさてん,横浜市港北区新横浜二丁目１４番地１号,35.509132,139.614512
神奈川県,横浜市,新横浜2丁目南側交差点,しんよこはまにちょうめみなみがわこうさてん,横浜市港北区新横浜二丁目３番地１０号,35.508574,139.615156
神奈川県,横浜市,新横浜2丁目中央交差点,しんよこはまにちょうめちゅうおうこうさてん,横浜市港北区新横浜二丁目６番１号,35.507543,139.613806
神奈川県,横浜市,横浜労災病院入口交差点,よこはまろうさいびょういんいりぐちこうさてん,横浜市港北区新横浜二丁目１２番１号,35.508096,139.61316
神奈川県,横浜市,浜鳥橋交差点,はまとりばしこうさてん,横浜市港北区鳥山町１７７０番地,35.509588,139.610941
神奈川県,横浜市,免許センター入口交差点,めんきょせんたーいりぐちこうさてん,横浜市旭区二俣川一丁目３番,35.464462,139.532581
神奈川県,横浜市,ライトセンター前交差点,らいとせんたーまえこうさてん,横浜市旭区二俣川一丁目８５番４号,35.467197,139.526003
神奈川県,横浜市,清水ヶ丘住宅入口交差点,しみずがおかじゅうたくいりぐちこうさてん,横浜市旭区中沢一丁目１番２７号,35.467727,139.529729
神奈川県,横浜市,二俣川銀座交差点,ふたまたがわぎんざこうさてん,横浜市旭区二俣川一丁目４６番,35.465683,139.531456
神奈川県,横浜市,中沢ニュータウン入口交差点,なかざわにゅーたうんいりぐちこうさてん,横浜市旭区二俣川一丁目６９番地,35.467992,139.528659
神奈川県,横浜市,市が尾駅入口交差点,いちがおえきいりぐちこうさてん,横浜市青葉区市ケ尾町１１５０番地,35.549743,139.53906
神奈川県,横浜市,市ケ尾交差点,いちがおこうさてん,横浜市青葉区市ケ尾町１３５３番地,35.551021,139.537933
神奈川県,横浜市,青葉台駅前交差点,あおばだいえきまえこうさてん,横浜市青葉区青葉台一丁目７番,35.543408,139.516418
神奈川県,横浜市,大口通商店街入口交差点,おおぐちどおりしょうてんがいいりぐちこうさてん,横浜市神奈川区大口通１３７番地１号,35.490882,139.644944
神奈川県,横浜市,盲学校入口交差点,もうがっこういりぐちこうさてん,横浜市港北区仲手原一丁目２７番,35.496912,139.636844
神奈川県,横浜市,岡野交差点,おかのこうさてん,横浜市西区南幸二丁目１２番５号,35.463424,139.615632
神奈川県,横浜市,伊勢山皇大神宮入口交差点,いせやまこうたいじんぐういりぐちこうさてん,横浜市西区戸部町一丁目９番,35.450801,139.624665
神奈川県,川崎市,銀柳街入口交差点,ぎんりゅうがいいりぐちこうさてん,川崎市川崎区砂子二丁目４番１０号,35.530873,139.700371
神奈川県,川崎市,砂子交差点,いさごこうさてん,川崎市川崎区砂子二丁目４番１３号,35.530685,139.701159
神奈川県,川崎市,川崎駅前南交差点,かわさきえきまえみなみこうさてん,川崎市川崎区小川町１番１号,35.529583,139.697972
神奈川県,川崎市,川崎駅前東交差点,かわさきえきまえひがしこうさてん,川崎市川崎区駅前本町７番地１号,35.531156,139.699415
神奈川県,川崎市,市役所前東交差点,しやくしょまえひがしこうさてん,川崎市川崎区宮本町１番地１号,35.53014,139.703295
神奈川県,川崎市,市役所前交差点,しやくしょまえこうさてん,川崎市川崎区宮本町１１番,35.530339,139.702532
神奈川県,川崎市,公団住宅入口交差点,こうだんじゅうたくいりぐちこうさてん,川崎市川崎区小川町１番２６号,35.528246,139.696533
神奈川県,川崎市,川崎駅前交番前交差点,かわさきえきまえこうばんまえこうさてん,川崎市川崎区駅前本町２６番地,35.530019,139.697203
神奈川県,相模原市,相模原警察署前交差点,さがみはらけいさつしょまえこうさてん,相模原市中央区富士見一丁目１番１号,35.572413,139.375141
神奈川県,相模原市,市役所前交差点,しやくしょまえこうさてん,相模原市中央区中央二丁目１１番,35.570522,139.373751
神奈川県,相模原市,税務署入口交差点,ぜいむしょいりぐちこうさてん,相模原市中央区富士見六丁目２番,35.568569,139.372305
神奈川県,相模原市,相模原市役所西交差点,さがみはらしやくしょにしこうさてん,相模原市中央区中央二丁目１１番,35.571282,139.372136
神奈川県,相模原市,市民会館前交差点,しみんかいかんまえこうさてん,相模原市中央区富士見六丁目１番,35.569867,139.373262
神奈川県,相模原市,裁判所前交差点,さいばんしょまえこうさてん,相模原市中央区富士見六丁目９番,35.56953,139.375686
神奈川県,相模原市,相模台小学校前交差点,さがみだいしょうがっこうまえこうさてん,相模原市南区南台６丁目５番,35.522255,139.412298
神奈川県,横須賀市,消防局庁舎入口交差点,しょうぼうきょくちょうしゃいりぐちこうさてん,横須賀市小川町１１番地,35.280783,139.672279
神奈川県,横須賀市,横須賀市役所交差点,よこすかしやくしょこうさてん,横須賀市小川町１１番地,35.281718,139.671412
神奈川県,横須賀市,若松町１丁目交差点,わかまつちょういっちょうめこうさてん,横須賀市若松町一丁目５番,35.279407,139.67044
神奈川県,横須賀市,緑ケ丘下交差点,みどりがおかしたこうさてん,横須賀市本町三丁目２５番,35.281905,139.663015
神奈川県,横須賀市,若松町交差点,わかまつちょうこうさてん,横須賀市若松町一丁目１番地,35.280093,139.669927
神奈川県,横須賀市,大滝町２丁目南側交差点,おおだきちょうにちょうめみなみがわこうさてん,横須賀市大滝町二丁目２番地,35.280734,139.669405
神奈川県,横須賀市,横須賀郵便局前交差点,よこすかゆうびんきょくまえこうさてん,横須賀市小川町８番地,35.281403,139.670718
神奈川県,平塚市,平塚ろう学校前交差点,ひらつかろうがっこうまえこうさてん,平塚市追分９番３６号,35.339114,139.33681
神奈川県,平塚市,県合同庁舎前交差点,けんごうどうちょうしゃまえこうさてん,平塚市宮松町１５番１９号,35.338101,139.351115
神奈川県,平塚市,平塚市役所前交差点,ひらつかしやくしょまえこうさてん,平塚市浅間町９番１号,35.334957,139.350465
神奈川県,平塚市,江陽中学校北交差点,こうようちゅうがっこうきたこうさてん,平塚市浅間町８番１号,35.335931,139.346591
神奈川県,平塚市,盲学校前交差点,もうがっこうまえこうさてん,平塚市追分１０番１号,35.339648,139.33922
神奈川県,平塚市,市役所北交差点,しやくしょきたこうさてん,平塚市浅間町１１番１号,35.336731,139.350955
神奈川県,藤沢市,湘南台駅入口交差点,しょうなんだいえきいりぐちこうさてん,藤沢市湘南台七丁目１６番,35.397168,139.47033
神奈川県,藤沢市,湘南台中学校入口交差点,しょうなんだいちゅうがっこういりぐちこうさてん,藤沢市湘南台七丁目１７番１号,35.396243,139.470621
神奈川県,藤沢市,湘南台中学校前交差点,しょうなんだいちゅうがっこうまえこうさてん,藤沢市湘南台七丁目１９番１号,35.396823,139.473215
神奈川県,藤沢市,市民図書館入口交差点,しみんとしょかんいりぐちこうさてん,藤沢市湘南台一丁目２１番,35.394791,139.471079
神奈川県,藤沢市,湘南台駅東口交差点,しょうなんだいえきひがしぐちこうさてん,藤沢市湘南台一丁目５番１号,35.396785,139.468431
神奈川県,藤沢市,湘南台文化センター南側交差点,しょうなんだいぶんかせんたーみなみがわこうさてん,藤沢市湘南台一丁目５番１０号,35.39701,139.46956
神奈川県,厚木市,本厚木駅北口交差点,ほんあつぎえききたぐちこうさてん,厚木市中町二丁目３番５号,35.440202,139.364201
神奈川県,厚木市,本厚木駅東口交差点,ほんあつぎえきひがしぐちこうさてん,厚木市中町二丁目５番１５号,35.440663,139.366034
神奈川県,厚木市,中町１丁目交差点,なかちょういっちょうめこうさてん,厚木市中町一丁目５番１０号,35.442166,139.366169
神奈川県,厚木市,バスセンター西側交差点,ばすせんたーにしがわこうさてん,厚木市中町二丁目９番１３号,35.441665,139.36614
神奈川県,厚木市,市健康センター入口交差点,しけんこうせんたーいりぐちこうさてん,厚木市中町二丁目１３番１６号,35.442692,139.366224
山梨県,甲府市,橘児童公園前交差点,たちばなじどうこうえんまえこうさてん,甲府市丸の内一丁目８番１１号,35.66431,138.567924
山梨県,甲府市,県庁前交差点,けんちょうまえこうさてん,甲府市丸の内二丁目３番３号,35.66529,138.568
長野県,松本市,深志２丁目交差点,ふかしにちょうめこうさてん,松本市中央二丁目７番１号先,36.23115,137.969342
長野県,松本市,旭町小学校前交差点,あさひまちしょうがっこうまえこうさてん,松本市旭二丁目４番４号先,36.245801,137.97598
長野県,松本市,松本駅前交差点,まつもとえきまえこうさてん,松本市深志一丁目７８５番地先 ,36.231058,137.965666
長野県,松本市,中央県交差点,ちゅうおうあがたこうさてん,松本市中央四丁目９番４３号先,36.233517,137.979678
長野県,松本市,野球場西交差点,やきゅうじょうにしこうさてん,松本市浅間温泉一丁目６番１２号先,36.257006,137.986286
長野県,松本市,深志２丁目南交差点,ふかしにちょうめみなみこうさてん,松本市深志二丁目３番９号先,36.229963,137.969369
長野県,松本市,並柳交差点,なみやなぎこうさてん,松本市並柳二丁目８番３号先,36.213858,137.979606
長野県,松本市,元町１丁目交差点,もとまちいっちょうめこうさてん,松本市元町一丁目２番１６号先,36.240419,137.980499
長野県,長野市,桐原交差点,きりはらこうさてん,長野市桐原一丁目６０４番７号先,36.661583,138.214846
長野県,長野市,長野駅前交差点,ながのえきまえこうさてん,長野市大字南長野末広町１３２７番地６先,36.643756,138.187578
長野県,長野市,長野駅北交差点,ながのえききたこうさてん,長野市南千歳一丁目２２番地１２先,36.644205,138.188213
長野県,長野市,七瀬西交差点,ななせにしこうさてん,長野市七瀬２５番地１先,36.644597,138.193374
長野県,長野市,ホクト文化ホール北交差点,ほくとぶんかほーるきたこうさてん,長野市若里一丁目１番１号先,36.637216,138.187547
長野県,長野市,北尾張部交差点,きたおわりべこうさてん,長野市大字北尾張部２５４番地先,36.655399,138.240691
長野県,長野市,木工団地入口交差点,もっこうだんちいりぐちこうさてん,長野市大字北尾張部４０３番地先,36.655178,138.238084
長野県,上田市,上田警察署入口交差点,うえだけいさつしょいりぐちこうさてん,上田市天神三丁目３番１６号先,36.397598,138.245629
長野県,上田市,天神２丁目交差点,てんじんにちょうめこうさてん,上田市天神一丁目４番１号先,36.399151,138.247896
長野県,上田市,仁古田交差点,にこだこうさてん,上田市仁古田６１１番地先 ,36.377788,138.172704
長野県,上田市,上田城跡公園南交差点,うえだじょうせきこうえんみなみこうさてん,上田市天神二丁目１９４１番地３先,36.402214,138.244095
長野県,佐久市,佐久平駅東交差点,さくだいらえきひがしこうさてん,佐久市佐久平駅東２番地６先 ,36.277012,138.467063
静岡県,静岡市,静岡駅前交差点,しずおかえきまえこうさてん,静岡市葵区黒金町４９番地,34.972395,138.387644
静岡県,静岡市,静岡中央郵便局前交差点,しずおかちゅうおうゆうびんきょくまえこうさてん,静岡市葵区黒金町１番地１,34.971808,138.386611
静岡県,静岡市,江川町交差点,えがわちょうこうさてん,静岡市葵区追手町２番１２号,34.974836,138.385639
静岡県,静岡市,県庁前交差点,けんちょうまえこうさてん,静岡市葵区追手町９番６号,34.976041,138.382513
静岡県,静岡市,新静岡駅前交差点,しんしずおかえきまえこうさてん,静岡市葵区駿府町１番１４号,34.975904,138.386305
静岡県,静岡市,水落交番西交差点,みずおちこうばんにしこうさてん,静岡市葵区鷹匠二丁目３番７号,34.97962,138.387656
静岡県,静岡市,御幸町交差点,みゆきちょうこうさてん,静岡市葵区御幸町７番地２,34.974164,138.386325
静岡県,静岡市,日赤前交差点,にっせきまえこうさてん,静岡市葵区追手町８番２号,34.976871,138.38045
静岡県,静岡市,御幸町南交差点,みゆきちょうみなみこうさてん,静岡市葵区御幸町７番地１２,34.973544,138.387032
静岡県,静岡市,鷹匠2丁目交差点,たかじょうにちょうめこうさてん,静岡市葵区鷹匠二丁目１番１号,34.977476,138.386963
静岡県,静岡市,常磐町２丁目交差点,ときわちょうにちょうめこうさてん,静岡市葵区黒金町１２番地５,34.970579,138.384677
静岡県,静岡市,呉服町２丁目交差点,ごふくちょうにちょうめこうさてん,静岡市葵区紺屋町３番１号,34.973669,138.384756
静岡県,静岡市,中町交差点,なかちょうこうさてん,静岡市葵区中町１６番,34.977417,138.379503
静岡県,静岡市,水落交差点,みずおちこうさてん,静岡市葵区駿府町１１番,34.980645,138.388265
静岡県,静岡市,新静岡駅前南交差点,しんしずおかえきまえみなみこうさてん,静岡市葵区駿府町１番１４号,34.975325,138.385944
静岡県,静岡市,宮ケ崎町交差点,みやがさきちょうこうさてん,静岡市葵区宮ヶ崎町７０番地２,34.981111,138.376321
静岡県,静岡市,呉服町１丁目交差点,ごふくちょういっちょうめこうさてん,静岡市葵区呉服町一丁目１０番地,34.976153,138.378744
静岡県,静岡市,浅間神社前交差点,せんげんじんじゃまえこうさてん,静岡市葵区宮ヶ崎町１０２番地,34.982041,138.375613
静岡県,静岡市,静岡駅南口交差点,しずおかえきみなみぐちこうさてん,静岡市駿河区南町９番１号,34.970888,138.389595
静岡県,三島市,大社前交差点,たいしゃまえこうさてん,三島市大社町１８番１号,35.120153,138.919258
静岡県,三島市,本町交差点,ほんちょうこうさてん,三島市本町１２番１号,35.119435,138.9148
静岡県,三島市,三島駅東交差点,みしまえきひがしこうさてん,三島市一番町１０番６号,35.125691,138.914265
静岡県,三島市,大社西交差点,たいしゃにしこうさてん,三島市中央町３番３６号,35.120053,138.91855
静岡県,三島市,三島駅前交差点,みしまえきまえこうさてん,三島市一番町１６番１号,35.125552,138.91263
静岡県,三島市,白滝公園交差点,しらたきこうえんこうさてん,三島市一番町１番３１号,35.122739,138.913973
静岡県,三島市,三島駅北口交差点,みしまえききたぐちこうさてん,三島市文教町一丁目５番１０号,35.128801,138.910606
静岡県,三島市,区検前交差点,くけんまえこうさてん,三島市文教町一丁目１番３９号,35.128032,138.914506
静岡県,三島市,本町北交差点,ほんちょうきたこうさてん,三島市本町１番３６号,35.120552,138.914582
静岡県,三島市,田町駅入口交差点,たまちえきいりぐちこうさてん,三島市本町１４番２７,35.119625,138.915997
静岡県,三島市,文化会館北交差点,ぶんかかいかんきたこうさてん,三島市一番町２番２５号,35.124285,138.914035
静岡県,三島市,浦島神社交差点,うらしまじんじゃこうさてん,三島市大宮町一丁目１２３５番,35.120835,138.918097
静岡県,三島市,市役所前交差点,しやくしょまえこうさてん,三島市北田町４番４７号,35.118893,138.91908
静岡県,浜松市,八幡町交差点,はちまんちょうこうさてん,浜松市中央区八幡町２０３番地,34.713376,137.734047
静岡県,浜松市,八幡北交差点,はちまんきたこうさてん,浜松市中央区八幡町３２番地２,34.714441,137.734607
静岡県,浜松市,八幡駅前交差点,はちまんえきまえこうさてん,浜松市中央区八幡町１５０番地,34.716352,137.735683
静岡県,浜松市,八幡駅北交差点,はちまんえききたこうさてん,浜松市中央区八幡町１０番地１,34.717698,137.736265
静岡県,浜松市,八幡宮西交差点,はちまんぐうにしこうさてん,浜松市中央区八幡町１７５番地４,34.715294,137.735112
静岡県,浜松市,成子町交差点,なるこちょうこうさてん,浜松市中央区成子町５３番地,34.699899,137.726986
静岡県,浜松市,市役所前交差点,しやくしょまえこうさてん,浜松市中央区元城町１１５番地１０,34.710266,137.727414
静岡県,浜松市,鍛冶町プラザ南交差点,かじまちぷらざみなみこうさてん,浜松市中央区鍛冶町１番２号,34.702203,137.731601
静岡県,浜松市,浜松駅北口交差点,はままつえききたぐちこうさてん,浜松市中央区旭町１０番地２７,34.705574,137.733007
静岡県,浜松市,浜松駅東口交差点,はままつえきひがしぐちこうさてん,浜松市中央区板屋町１１１番地３,34.704671,137.735121
静岡県,沼津市,新宿町交差点,しんじゅくちょうこうさてん,沼津市新宿町３番地の２１,35.105662,138.860752
静岡県,沼津市,庄栄町交差点,しょうえいちょうこうさてん,沼津市新宿町１９番地の２３,35.10917,138.86129
静岡県,沼津市,沼津駅北口東交差点,ぬまづえききたぐちひがしこうさてん,沼津市高島町９番９号,35.104388,138.860553
静岡県,沼津市,新宿町北交差点,しんじゅくちょうきたこうさてん,沼津市新宿町９番地の６,35.107493,138.86103
静岡県,沼津市,庄栄町北交差点,しょうえいちょうきたこうさてん,沼津市泉町１番地,35.110774,138.861546
岐阜県,岐阜市,若宮町６丁目交差点,わかみやちょうろくちょうめこうさてん,岐阜市若宮町六丁目７番地先,35.420594,136.756298
岐阜県,岐阜市,千石町２丁目交差点,せんごくちょうにちょうめこうさてん,岐阜市千石町二丁目３番地先,35.425186,136.753313
岐阜県,高山市,高山駅西交差点,たかやまえきにしこうさてん,高山市昭和町一丁目３２０番地先,36.140764,137.249484
愛知県,名古屋市,中村町７丁目交差点,なかむらちょうななちょうめこうさてん,名古屋市中村区中村町七丁目４１番地,35.170906,136.854699
愛知県,名古屋市,広路通１丁目交差点,ひろじどおりいっちょうめこうさてん,名古屋市昭和区広路通一丁目８番地,35.149555,136.938453
愛知県,名古屋市,安田通１丁目交差点,やすだどおりいっちょうめこうさてん,名古屋市昭和区安田通一丁目１４番地,35.156479,136.941613
愛知県,名古屋市,川名本町１丁目交差点,かわなほんまちいっちょうめこうさてん,名古屋市昭和区川名本町一丁目１番地,35.153727,136.939902
愛知県,名古屋市,塩付通２丁目交差点,しおつけどおりにちょうめこうさてん,名古屋市昭和区塩付通一丁目４６番地,35.151459,136.938627
愛知県,名古屋市,御器所東交差点,ごきそひがしこうさてん,名古屋市昭和区御器所通三丁目１７番地,35.149571,136.936711
愛知県,名古屋市,八勝通１丁目交差点,はっしょうどおりいっちょうめこうさてん,名古屋市瑞穂区八勝通二丁目１番地,35.127305,136.951986
愛知県,名古屋市,総合リハビリセンター南交差点,そうごうりはびりせんたーみなみこうさてん,名古屋市瑞穂区弥富町字密柑山１番地の２,35.128571,136.953302
愛知県,名古屋市,港電信電話局前交差点,みなとでんしんでんわきょくまえこうさてん,名古屋市港区港楽一丁目２番１２号,35.10497,136.884278
愛知県,名古屋市,盲人情報文化センター北交差点,もうじんじょうほうぶんかせんたーきたこうさてん,名古屋市港区港楽二丁目１番３号,35.104234,136.887884
愛知県,名古屋市,図書館前交差点,としょかんまえこうさてん,名古屋市港区港楽一丁目１番３号,35.105943,136.884486
愛知県,名古屋市,港楽一丁目交差点,こうらくいっちょうめこうさてん,名古屋市港区港楽一丁目５番５号,35.104646,136.886577
愛知県,名古屋市,都通１丁目交差点,みやこどおりいっちょうめこうさてん,名古屋市千種区豊年町３番１８号,35.177597,136.939572
愛知県,名古屋市,千種公園前交差点,ちくさこうえんまえこうさてん,名古屋市千種区松軒二丁目１２番９号,35.177731,136.942098
愛知県,名古屋市,古出来南交差点,こできみなみこうさてん,名古屋市千種区松軒一丁目３番１４号,35.179265,136.940072
愛知県,名古屋市,瑞穂運動場西交差点,みずほうんどうじょうにしこうさてん,名古屋市瑞穂区瑞穂通五丁目１７番地,35.124459,136.935611
愛知県,名古屋市,瑞穂公園交差点,みずほこうえんこうさてん,名古屋市瑞穂区豊岡通三丁目２４番地,35.1227,136.940668
愛知県,名古屋市,山下通交差点,やましたどおりこうさてん,名古屋市瑞穂区田辺通五丁目１１番地の１,35.121958,136.94774
愛知県,名古屋市,豊岡通３丁目交差点,とよおかどおりさんちょうめこうさてん,名古屋市瑞穂区豊岡通三丁目１０番地,35.123648,136.937966
愛知県,名古屋市,落合橋西交差点,おちあいばしにしこうさてん,名古屋市瑞穂区洲山町二丁目１２番地,35.117737,136.938852
愛知県,名古屋市,瑞穂競技場前交差点,みずほきょうぎじょうまえこうさてん,名古屋市瑞穂区山下通五丁目１番地,35.121294,136.944596
愛知県,名古屋市,瑞穂競技場交差点,みずほきょうぎじょうこうさてん,名古屋市瑞穂区山下通五丁目１番地,35.122179,136.942158
愛知県,名古屋市,田辺通５丁目交差点,たなべどおりごちょうめこうさてん,名古屋市瑞穂区田辺通四丁目１６番地先,35.124267,136.946903
愛知県,名古屋市,田辺通４丁目交差点,たなべどおりよんちょうめこうさてん,名古屋市瑞穂区田辺通四丁目８番地先,35.125591,136.946411
愛知県,小牧市,小牧三丁目東交差点,こまきさんちょうめひがしこうさてん,小牧市小牧三丁目５５５番地,35.289254,136.925429
愛知県,小牧市,小牧一丁目中交差点,こまきいっちょうめなかこうさてん,小牧市小牧一丁目４３９番地,35.290911,136.918754
愛知県,小牧市,小牧一丁目東交差点,こまきいっちょうめひがしこうさてん,小牧市小牧一丁目５９２番地,35.290017,136.921393
愛知県,小牧市,小牧駅西交差点,こまきえきにしこうさてん,小牧市中央一丁目２７５番地,35.288916,136.926771
愛知県,小牧市,小牧三丁目西交差点,こまきさんちょうめにしこうさてん,小牧市小牧三丁目１７２番地,35.289526,136.924216
愛知県,豊田市,西町５丁目北交差点,にしまちごちょうめきたこうさてん,豊田市西町五丁目１７番地,35.085646,137.155351
愛知県,豊田市,豊田市駅西交差点,とよたしえきにしこうさてん,豊田市若宮町八丁目４５番地,35.087069,137.155581
愛知県,豊田市,新豊田駅西交差点,しんとよたえきにしこうさてん,豊田市小坂本町一丁目５番の１０,35.087504,137.15263
愛知県,豊田市,若宮町８丁目交差点,わかみやちょうはっちょうめこうさてん,豊田市若宮町八丁目７番地,35.087239,137.154517
愛知県,豊田市,喜多町４丁目交差点,きたちょうよんちょうめこうさてん,豊田市喜多町四丁目６８番地１先,35.086554,137.161467
愛知県,豊田市,喜多町２丁目交差点,きたちょうにちょうめこうさてん,豊田市喜多町二丁目１０１番地先,35.086853,137.15762
愛知県,豊田市,喜多町３丁目交差点,きたちょうさんちょうめこうさてん,豊田市喜多町三丁目１９番の３先,35.086751,137.159569
愛知県,豊橋市,駅前大通交差点,えきまえおおどおりこうさてん,豊橋市駅前大通一丁目３１番地,34.763171,137.385535
愛知県,豊橋市,豊橋駅西交差点,とよはしえきにしこうさてん,豊橋市花田一番町５７番地,34.761969,137.379586
愛知県,豊橋市,前畑電停交差点,まえはたでんていこうさてん,豊橋市旭町７３番地,34.765739,137.404613
三重県,伊勢市,岩渕交差点,いわぶちこうさてん,伊勢市岩渕一丁目１６番１３号先,34.486493,136.712939
三重県,伊勢市,伊勢市駅西交差点,いせしえきにしこうさてん,伊勢市宮後一丁目１番２号先,34.491013,136.708546
三重県,伊勢市,吹上交差点,ふきあげこうさてん,伊勢市吹上一丁目６番３６号先,34.489436,136.710421
三重県,伊勢市,宇治浦田町交差点,うじうらたちょうこうさてん,伊勢市宇治浦田一丁目１０番４３号先,34.466087,136.721584
三重県,伊勢市,伊勢市駅前交差点,いせしえきまえこうさてん,伊勢市本町１７番１号先,34.490636,136.709274
三重県,伊勢市,伊勢簡易裁判所前交差点,いせかんいさいばんしょまえこうさてん,伊勢市岡本一丁目２番６号先,34.486967,136.710283
三重県,伊勢市,岩渕２交差点,いわぶちにこうさてん,伊勢市岩渕二丁目４番１号先,34.487113,136.713077
三重県,伊勢市,本町３交差点,ほんまちさんこうさてん,伊勢市本町５番１号先,34.490215,136.708839
三重県,伊勢市,本町４交差点,ほんまちよんこうさてん,伊勢市本町２０番２０号先,34.48815,136.707041
三重県,伊勢市,外宮前交差点,げくうまえこうさてん,伊勢市本町１４番６号先,34.487617,136.706856
三重県,伊勢市,伊勢市役所西交差点,いせしやくしょにしこうさてん,伊勢市岡本一丁目２番２９号先,34.48747,136.707651
三重県,伊勢市,競技場前交差点,きょうぎじょうまえこうさてん,伊勢市宇治館町２７５番地１先,34.464584,136.726174
三重県,伊勢市,宇治浦田東交差点,うじうらたひがしこうさてん,伊勢市宇治浦田一丁目１１番５号先,34.465583,136.723468
三重県,伊勢市,宇治山田駅前交差点,うじやまだえきまえこうさてん,伊勢市岩渕一丁目１３番１５号先,34.488395,136.713138
三重県,伊勢市,宇治中之切町交差点,うじなかのきりちょうこうさてん,伊勢市宇治中之切町１５２番地先,34.462255,136.721607
三重県,伊勢市,内宮前交差点,ないくうまえこうさてん,伊勢市宇治今在家町１１７番地先,34.459725,136.722108
三重県,四日市市,諏訪栄町交差点,すわさかえまちこうさてん,四日市市諏訪栄町１番１号先,34.965168,136.622241
三重県,四日市市,ＪＲ四日市駅前交差点,じぇいあーるよっかいちえきまえこうさてん,四日市市本町３番８５号先,34.962837,136.628263
三重県,四日市市,諏訪町南交差点,すわちょうみなみこうさてん,四日市市諏訪町５番４号先,34.966158,136.622695
三重県,四日市市,鵜の森二丁目交差点,うのもりにちょうめこうさてん,四日市市鵜の森二丁目１番２１号先,34.967746,136.613909
三重県,四日市市,近鉄四日市駅西交差点,きんてつよっかいちえきにしこうさてん,四日市市鵜の森一丁目２番１９号先,34.966372,136.617449
三重県,四日市市,農協ビル前交差点,のうきょうびるまえこうさてん,四日市市浜田町４番２０号先,34.96571,136.620698
三重県,四日市市,ふれあいモール東交差点,ふれあいもーるひがしこうさてん,四日市市諏訪栄町７番３１号先,34.967591,136.619606
三重県,四日市市,安島二丁目交差点,やすじまにちょうめこうさてん,四日市市安島二丁目２番５号先,34.968385,136.612202
三重県,四日市市,市民公園東交差点,しみんこうえんひがしこうさてん,四日市市鵜の森一丁目３番１９号先,34.966817,136.616461
三重県,四日市市,博物館前交差点,はくぶつかんまえこうさてん,四日市市鵜の森一丁目５番２０号先,34.967378,136.614865
三重県,四日市市,中央ロータリー交差点,ちゅうおうろーたりーこうさてん,四日市市諏訪町１番５号先,34.964119,136.625092
三重県,四日市市,近鉄四日市駅東交差点,きんてつよっかいちえきひがしこうさてん,四日市市諏訪栄町６番４号先,34.966293,136.619033
三重県,津市,桜橋二丁目西交差点,さくらばしにちょうめにしこうさてん,津市桜橋二丁目１１８番地先,34.732962,136.514753
三重県,津市,警察学校東交差点,けいさつがっこうひがしこうさてん,津市高茶屋四丁目３５番１号先,34.66633,136.505965
三重県,津市,国道２３号津駅入口交差点,こくどうにじゅうさんごうつえきいりぐちこうさてん,津市栄町三丁目１４１番地先,34.733173,136.513209
三重県,津市,津駅前交差点,つえきまえこうさてん,津市羽所町３７１番地先,34.733462,136.511482
三重県,津市,津駅西交差点,つえきにしこうさてん,津市大谷町２２５番地先,34.733582,136.508611
三重県,津市,中新町交差点,なかしんまちこうさてん,津市南丸之内１１番１５号先,34.715792,136.502813
三重県,津市,島崎町交差点,しまざきちょうこうさてん,津市島崎町３０２番地２先,34.732372,136.519144
三重県,津市,護国神社交差点,ごこくじんじゃこうさてん,津市広明町１４７番地２先,34.732574,136.508387
三重県,津市,津リージョンプラザ南交差点,つりーじょんぷらざみなみこうさてん,津市西丸之内１８番２１号先,34.717807,136.503848
三重県,津市,桜橋二丁目交差点,さくらばしにちょうめこうさてん,津市桜橋二丁目１７８番地先,34.732709,136.516618
三重県,津市,税務署前交差点,ぜいむしょまえこうさてん,津市桜橋二丁目９９番地先,34.731427,136.514442
三重県,松坂市,松阪駅前交差点,まつさかえきまえこうさてん,松阪市日野町７２９番地１先,34.576061,136.534433
三重県,松坂市,本町交差点,ほんまちこうさてん,松阪市本町２１７６番地１０先,34.578506,136.5302
三重県,松坂市,日野町交差点,ひのまちこうさてん,松阪市日野町７９３番地先,34.574641,136.532072
三重県,松坂市,裁判所前交差点,さいばんしょまえこうさてん,松阪市中央町３６番地１先,34.579652,136.538464
三重県,松坂市,京町一区交差点,きょうまちいっくこうさてん,松阪市京町一区４５６番地先,34.578329,136.540469
三重県,松坂市,殿町交差点,とのまちこうさてん,松阪市殿町１３１７番地８先,34.577523,136.528358
三重県,松坂市,中町交差点,なかまちこうさてん,松阪市中町１８７１番地先,34.576639,136.531157
三重県,松坂市,中川駅西交差点,なかがわえきにしこうさてん,松阪市嬉野中川新町一丁目７２番地先,34.633003,136.477357
三重県,松坂市,地域振興局入口交差点,ちいきしんこうきょくいりぐちこうさてん,松阪市嬉野須賀町１３４２番地１先,34.625353,136.48311
三重県,松坂市,中川南交差点,なかがわみなみこうさてん,松阪市嬉野中川新町四丁目７１番地先,34.63129,136.479025
三重県,松坂市,中川駅前交差点,なかがわえきまえこうさてん,松阪市嬉野中川新町一丁目５９番地先,34.63409,136.476329
三重県,桑名市,中央町交差点,ちゅうおうちょうこうさてん,桑名市中央町三丁目６５番地先,35.06294,136.685703
三重県,桑名市,寿町一丁目交差点,ことぶきちょういっちょうめこうさてん,桑名市寿町一丁目１９番地先,35.065847,136.686473
三重県,桑名市,寿町二丁目交差点,ことぶきちょうにちょうめこうさてん,桑名市寿町二丁目３１番地２０先,35.064926,136.686217
三重県,桑名市,西桑名駅前交差点,にしくわなえきまえこうさてん,桑名市中央町一丁目７４番地先,35.065291,136.684586
三重県,桑名市,桑名駅東交差点,くわなえきひがしこうさてん,桑名市寿町二丁目１０番地先,35.066151,136.684787
三重県,桑名市,総合福祉会館前交差点,そうごうふくしかいかんまえこうさてん,桑名市常盤町６６番地先,35.064211,136.689999
三重県,桑名市,桑名市役所前交差点,くわなしやくしょまえこうさてん,桑名市中央町二丁目１９番地先,35.061622,136.685351
三重県,亀山市,御幸町農協前交差点,みゆきちょうのうきょうまえこうさてん,亀山市東御幸町７８番地４先,34.8508,136.453804
三重県,亀山市,南崎交差点,みなみざきこうさてん,亀山市南崎町７３５番地９先,34.852424,136.451189
三重県,鈴鹿市,神戸一丁目交差点,かんべいっちょうめこうさてん,鈴鹿市神戸一丁目１３番１号先,34.882399,136.582851
滋賀県,彦根市,小泉町交差点,こいずみちょうこうさてん,彦根市小泉町６９１番地１先,35.251086,136.243974
滋賀県,彦根市,小泉町中交差点,こいずみちょうなかこうさてん,彦根市小泉町５９６番地１先,35.248958,136.2468
滋賀県,彦根市,戸賀町交差点,とがちょうこうさてん,彦根市戸賀町１３０番地の３１地先,35.254011,136.239978
滋賀県,彦根市,南彦根駅西口交差点,みなみひこねえきにしぐちこうさてん,彦根市小泉町２８０番地の１１先,35.246766,136.247973
滋賀県,彦根市,彦根市スポーツ・文化交流センター前,ひこねしすぽーつぶんかこうりゅうせんたーまえ,彦根市小泉町６７２番地５先,35.250035,136.245376
滋賀県,彦根市,旭町西交差点,あさひまちにしこうさてん,彦根市旭町２７８番地先,35.273109,136.261081
滋賀県,彦根市,旭町交差点,あさひまちこうさてん,彦根市佐和町１２２番地の５地先,35.27279,136.261803
滋賀県,彦根市,福満公園西交差点,ふくみつこうえんにしこうさてん,彦根市西今町９４番地１４先,35.246288,136.244568
京都府,京都市,堀川三条交差点,ほりかわさんじょうこうさてん,京都市中京区橋西町６７７番地１,35.008561,135.751768未併用１
京都府,京都市,二条駅東口交差点,にじょうえきひがしぐちこうさてん,京都市中京区西ノ京東栂尾町３番地,35.011064,135.742621
京都府,京都市,壬生川通四条交差点,みぶがわどおりしじょうこうさてん,京都市中京区壬生賀陽御所町７７番地１,35.003581,135.746121
京都府,京都市,堀川押小路交差点,ほりかわおしこうじこうさてん,京都市中京区池元町４０８番地２,35.011852,135.751431未併用２
京都府,京都市,四条坊城交差点,しじょうぼうじょうこうさてん,京都市中京区壬生坊城町２６番地,35.003579,135.744405未併用３
京都府,京都市,堀川蛸薬師交差点,ほりかわたこやくしこうさてん,京都市中京区金屋町７７６番地２号,35.00615,135.751733未併用４
京都府,京都市,堀川六角交差点,ほりかわろっかくこうさてん,京都市中京区岩上町７２７,35.007339,135.751718未併用５
京都府,京都市,堀川錦小路交差点,ほりかわにしきこうじこうさてん,京都市中京区吉野町８３４番地,35.004927,135.751763未併用６
京都府,京都市,四条堀川交差点,しじょうほりかわこうさてん,京都市下京区唐津屋町５３５番地,35.00366,135.751977
京都府,京都市,塩小路西洞院交差点,しおこうじにしのとういんこうさてん,京都市下京区南不動堂町８０２,34.987156,135.75526
京都府,京都市,京都駅北西塩小路通交差点,きょうとえきほくせいしおこうじどおりこうさてん,京都市下京区東塩小路町８４３番地２,34.987193,135.757362併用：塩小路京都駅西口通路
京都府,京都市,塩小路東洞院交差点,しおこうじひがしのとういんこうさてん,京都市下京区東塩小路町５４１番地１,34.987243,135.761087
京都府,京都市,四条猪熊交差点,しじょういのくまこうさてん,京都市下京区唐津屋町５１０番地,35.003644,135.75044未併用７
京都府,京都市,塩小路新町交差点,しおこうじしんまちこうさてん,京都市下京区東塩小路町８４３番地１２,34.987184,135.756776
京都府,京都市,塩小路烏丸交差点,しおこうじからすまこうさてん,京都市下京区東塩小路町７２１番地１,34.987192,135.759748
京都府,京都市,中央郵便局東,ちゅうおうゆうびんきょくひがし,京都市下京区東塩小路町８４３番地１２,34.986473,135.757547併用：塩小路新町
京都府,京都市,京都駅八条口交差点,きょうとえきはちじょうぐちこうさてん,京都市南区東九条室町４８番地,34.984085,135.758244未併用８
京都府,京都市,烏丸八条交差点,からすまはちじょうこうさてん,京都市南区東九条上殿田町５３番地１,34.984114,135.759782
京都府,京都市,八条西洞院交差点,はちじょうにしのとういんこうさてん,京都市南区西九条北ノ内町１３番地１,34.984243,135.755202
京都府,京都市,千本北大路交差点,せんぼんきたおおじこうさてん,京都市北区紫野下御輿町２０番地,35.040878,135.738564
京都府,京都市,千本今宮交差点,せんぼんいまみやこうさてん,京都市北区紫野西蓮台野町７２番地７,35.044776,135.738187
京都府,京都市,千本通佛教大学正門前交差点,せんぼんどおりぶっきょうだいがくせいもんまえこうさてん,京都市北区紫野大徳寺町２６番地３９,35.042989,135.73836
京都府,京都市,千本通京都ライトハウス前交差点,せんぼんどおりきょうとらいとはうすまえこうさてん,京都市北区紫野西舟岡町７番地３,35.039408,135.739072
京都府,木津川市,高の原駅西交差点,たかのはらえきにしこうさてん,木津川市兜台一丁目２番,34.724852,135.788656未併用９
大阪府,大阪市,白津1丁目交差点,しらついっちょうめこうさてん,大阪市此花区北港白津一丁目２番街区北西角,34.666822,135.405779
大阪府,大阪市,桜島駅前交差点,さくらじまえきまえこうさてん,大阪市此花区桜島二丁目１番５号先,34.661628,135.432144
大阪府,大阪市,森ノ宮駅前交差点,もりのみやえきまえこうさてん,大阪市中央区森ノ宮中央一丁目１番４５号先,34.68142,135.53359
大阪府,大阪市,鶴橋駅前交差点,つるはしえきまえこうさてん,大阪市天王寺区舟橋町１９番８号先,34.666046,135.53044
大阪府,大阪市,上本町6丁目交差点,うえほんまちろくちょうめこうさてん,大阪市天王寺区上本町六丁目１番５５号先,34.66624,135.5193
大阪府,大阪市,谷町9丁目交差点,たにまちきゅうちょうめこうさてん,大阪市天王寺区生玉前町１番２５号先,34.66654,135.5157
大阪府,大阪市,小橋町交差点,おばせちょうこうさてん,大阪市天王寺区小橋町１４番４６号先,34.665971,135.523508
大阪府,大阪市,下味原交差点,しもあじはらこうさてん,大阪市天王寺区下味原町３番１３号先,34.666037,135.528846
大阪府,大阪市,上汐3丁目交差点,うえしおさんちょうめこうさてん,大阪市天王寺区上汐三丁目２番２３号先,34.66647,135.517126
大阪府,大阪市,上本町6丁目東交差点,うえほんまちろくちょうめひがしこうさてん,大阪市天王寺区東高津町１２番１８号先,34.666095,135.52097
大阪府,大阪市,小橋町東交差点,おばせちょうひがしこうさてん,大阪市天王寺区小橋町１４番６３号先,34.665991,135.525476
大阪府,大阪市,味原町交差点,あじはらちょうこうさてん,大阪市天王寺区味原町１５番１４号先,34.66595,135.527507
大阪府,大阪市,赤十字病院入口交差点,せきじゅうじびょういんいりぐちこうさてん,大阪市天王寺区筆ヶ崎町６番３２号先,34.664035,135.523353
大阪府,大阪市,視覚支援学校前交差点,しかくしえんがっこうまえこうさてん,大阪市東淀川区豊里七丁目５番２６号先,34.74363,135.542005
大阪府,大阪市,中道1丁目交差点,なかみちいっちょうめこうさてん,大阪市東成区中道一丁目３番２号先,34.681434,135.535016
大阪府,大阪市,我孫子西2丁目交差点,あびこにしにちょうめこうさてん,大阪市住吉区我孫子西二丁目１１番２３号先,34.602276,135.504465
大阪府,大阪市,我孫子西2丁目南交差点,あびこにしにちょうめみなみこうさてん,大阪市住吉区我孫子西二丁目１１番１４号先,34.601408,135.504097
大阪府,大阪市,我孫子町駅南交差点,あびこちょうえきみなみこうさてん,大阪市住吉区我孫子西二丁目３番24号,34.601683,135.506083
大阪府,大阪市,山之内1丁目東交差点,やまのうちいっちょうめひがしこうさてん,大阪市住吉区山之内一丁目８番１０号先,34.600268,135.503617
大阪府,大阪市,長居公園西口交差点,ながいこうえんにしぐちこうさてん,大阪市東住吉区長居公園１番３２号先,34.611781,135.513992
大阪府,大阪市,汎愛高校前交差点,はんあいこうこうまえこうさてん,大阪市鶴見区今津中一丁目７番１４号先,34.691921,135.569573
大阪府,大阪市,ライトハウス北交差点,らいとはうすきたこうさてん,大阪市鶴見区今津中二丁目４番２号先,34.691936,135.5713
大阪府,大阪市,今津中学校前交差点,いまづちゅうがっこうまえこうさてん,大阪市鶴見区今津中一丁目７番２号先,34.6919,135.56783
大阪府,大阪市,放出駅前交差点,はなてんえきまえこうさてん,大阪市鶴見区放出東三丁目２１番４０号先,34.68853,135.563035
兵庫県,神戸市,王子公園前交差点,おうじこうえんまえこうさてん,神戸市灘区王子町三丁目１番地先,34.709049,135.215471
兵庫県,神戸市,阪急王子公園駅前交差点,はんきゅうおうじこうえんえきまえこうさてん,神戸市灘区王子町一丁目２番１１号先,34.709366,135.217303
兵庫県,神戸市,坂口通1丁目交差点,さかぐちどおりいっちょうめこうさてん,神戸市中央区坂口通一丁目１番１号先,34.708772,135.213031
兵庫県,神戸市,上筒井1丁目交差点,かみつついいっちょうめこうさてん,神戸市中央区上筒井通一丁目２番７号先,34.708448,135.211648
兵庫県,神戸市,湊川神社前交差点,みなとがわじんじゃまえこうさてん,神戸市中央区多聞通二丁目４番１号先,34.680873,135.177124
兵庫県,神戸市,神戸駅前交差点,こうべえきまえこうさてん,神戸市中央区相生町二丁目３番３号先,34.680019,135.177326
兵庫県,神戸市,湊川神社西交差点,みなとがわじんじゃにしこうさてん,神戸市中央区多聞通三丁目１番１号先,34.680155,135.175909
兵庫県,神戸市,神戸駅西交差点,こうべえきにしこうさてん,神戸市中央区多聞通三丁目３番７号先,34.679555,135.176575
兵庫県,神戸市,湊川公園西口交差点,みなとがわこうえんにしぐちこうさてん,神戸市兵庫区下沢通一丁目５番１３号先,34.678811,135.166721
兵庫県,神戸市,新開地交差点,しんかいちこうさてん,神戸市兵庫区大開通一丁目１番先,34.676111,135.169441
兵庫県,神戸市,大開通２丁目交差点,だいかいどおりにちょうめこうさてん,神戸市兵庫区水木通二丁目１番９号先,34.674856,135.167166
兵庫県,神戸市,ダイヤ通東口交差点,だいやどおりひがしぐちこうさてん,神戸市兵庫区中道通一丁目３番１号先,34.677059,135.168562
兵庫県,神戸市,中道通１丁目交差点,なかみちどおりいっちょうめこうさてん,神戸市兵庫区下沢通一丁目１番１号先,34.677873,135.167767
兵庫県,神戸市,リハビリセンター前交差点,りはびりせんたーまえこうさてん,神戸市西区持子二丁目１５番地先,34.669979,134.980847
兵庫県,姫路市,姫路駅前交差点,ひめじえきまえこうさてん,姫路市駅前町２５１番地先,34.828538,134.6906
兵庫県,姫路市,姫路駅北交差点,ひめじえききたこうさてん,姫路市西駅前町１番地先,34.827949,134.690321
兵庫県,姫路市,姫路市役所南交差点,ひめじしやくしょみなみこうさてん,姫路市安田四丁目６番地先,34.815234,134.684103
兵庫県,姫路市,姫路市役所前交差点,ひめじしやくしょまえこうさてん,姫路市安田四丁目２５番地先,34.816293,134.684581
兵庫県,尼崎市,総合医療センター南交差点,そうごういりょうせんたーみなみこうさてん,尼崎市東難波町三丁目１６番２号先,34.729255,135.412421
兵庫県,尼崎市,尼崎市役所前交差点,あまがさきしやくしょまえこうさてん,尼崎市東七松町一丁目２３番１号先,34.732721,135.405805
兵庫県,尼崎市,総合医療センター前交差点,そうごういりょうせんたーまえこうさてん,尼崎市東灘波町二丁目１７番７７号先,34.730563,135.412269
兵庫県,西宮市,神明町西交差点,しんめいちょうにしこうさてん,西宮市神明町９番７号先,34.742236,135.350318
兵庫県,明石市,明石駅前交差点,あかしえきまえこうさてん,明石市大明石町一丁目５番６号先,34.64749,134.99356
奈良県,奈良市,高天交差点,たかまこうさてん,奈良市高天町８番地先,34.684311,135.826075
奈良県,奈良市,JR奈良駅前交差点,じぇいあーるならえきまえこうさてん,奈良市大宮町一丁目１番７号先,34.681985,135.820603
鳥取県,鳥取市,若桜街道交差点,わかさかいどうこうさてん,鳥取市栄町５０３番地,35.495999,134.228288
鳥取県,鳥取市,幸町交差点,さいわいちょうこうさてん,鳥取市幸町２２番地,35.494585,134.222911
鳥取県,鳥取市,末広温泉町交差点,すえひろおんせんちょうこうさてん,鳥取市末広温泉町４６２番地５,35.494787,134.230737
鳥取県,米子市,米子駅前交差点,よなごえきまえこうさてん,米子市明治町１２５番地,35.423643,133.335626
鳥取県,米子市,ビッグシップ前交差点,びっぐしっぷまえこうさてん,米子市末広町２９３番地,35.422551,133.334797
鳥取県,倉吉市,倉吉体育文化会館入口交差点,くらよしたいいくぶんかかいかんいりぐちこうさてん,倉吉市山根５８２番地４号,35.449477,133.849397
広島県,広島市,光町２丁目６番北交差点,ひかりまちにちょうめろくばんきたこうさてん,広島市東区光町二丁目６番１号先,34.401707,132.479316
広島県,広島市,光町２丁目６番交差点,ひかりまちにちょうめろくばんこうさてん,広島市東区光町二丁目６番３４号先,34.401899,132.478449
山口県,山口市,竪小路交差点,たてこうじこうさてん,山口市下竪小路７９番地先,34.180652,131.480184
徳島県,徳島市,障がい者交流プラザ入口交差点,しょうがいしゃこうりゅうぷらざいりぐちこうさてん,徳島市南矢三町二丁目１番５９号,34.085439,134.525431
徳島県,徳島市,二軒屋駅前交差点,にけんやえきまえこうさてん,徳島市南二軒屋町一丁目１番２８号,34.054376,134.545826
徳島県,徳島市,徳島製粉横交差点,とくしませいふんよここうさてん,徳島市南二軒屋町三丁目１番８号,34.052371,134.544955
香川県,高松市,盲学校南交差点,もうがっこうみなみこうさてん,高松市昭和町一丁目１番２２号,34.344111,134.035538
香川県,高松市,昭和町交差点,しょうわちょうこうさてん,高松市昭和町一丁目３番１号先,34.344361,134.03396
愛媛県,松山市,消防局前交差点,しょうぼうきょくまえこうさてん,松山市本町六丁目６番地１先 ,33.852684,132.758837
愛媛県,松山市,中央二丁目交差点,ちゅうおうにちょうめこうさてん,松山市中央二丁目２３番地１先 ,33.855036,132.747995
愛媛県,松山市,中央一丁目交差点,ちゅうおういっちょうめこうさてん,松山市中央一丁目１１番１号先,33.854178,132.752193
愛媛県,松山市,松山盲学校北交差点,まつやまもうがっこうきたこうさてん,松山市久万ﾉ台１８７番地１先 ,33.858115,132.748749
愛媛県,松山市,盲学校北第二交差点,もうがっこうきただいにこうさてん,松山市久万ﾉ台２８５番地３先,33.859096,132.749028
高知県,高知市,幸町高架下交差点,さいわいちょうこうかしたこうさてん,高知市幸町２番２８号先,33.567348,133.532305
福岡県,福岡市,吉塚駅前交差点,よしづかえきまえこうさてん,福岡市博多区東公園２番２０号先,33.606563,130.422555
福岡県,福岡市,県庁北口交差点,けんちょうきたぐちこうさてん,福岡市博多区東公園７番１１号先 ,33.607632,130.420611
福岡県,福岡市,県庁北交差点,けんちょうきたこうさてん,福岡市東区馬出一丁目１３番３号先,33.608843,130.419141
福岡県,福岡市,九大東門前交差点,きゅうだいひがしもんまえこうさてん,福岡市東区馬出三丁目１先,33.609137,130.418588
福岡県,福岡市,黒門西,くろもんにし,福岡市中央区黒門６番３号先,33.590339,130.371678
福岡県,福岡市,黒門橋,くろもんばし,福岡市中央区唐人町一丁目１番１号先,33.590408,130.372921
福岡県,福岡市,当仁小学校前,とうにんしょうがっこうまえ,福岡市中央区唐人町三丁目１番４５号先 ,33.592021,130.372663
福岡県,福岡市,大橋駅前,おおはしえきまえ,福岡市南区大橋一丁目３番１号先,33.560101,130.427629
福岡県,福岡市,南区役所前,みなみくやくしょまえ,福岡市南区塩原三丁目２５番１号先,33.561107,130.426182
福岡県,福岡市,姪浜駅南口交差点,めいのはまえきみなみぐちこうさてん,福岡市西区姪浜駅南一丁目２番２３号先,33.583089,130.325346
福岡県,福岡市,西区役所前交差点,にしくやくしょまえこうさてん,福岡市西区内浜一丁目４番１号先,33.583178,130.323666
福岡県,福岡市,別府１丁目交差点,べふいっちょうめこうさてん,福岡市城南区別府一丁目２１番先,33.57468,130.370873
福岡県,福岡市,城南区役所前交差点,じょうなんくやくしょまえこうさてん,福岡市城南区鳥飼五丁目２番２５号先 ,33.575424,130.370577
福岡県,北九州市,西小倉駅ロータリー前,にしこくらえきろーたりーまえ,北九州市小倉北区室町三丁目３番１５号先,33.888101,130.873503
福岡県,北九州市,西小倉駅前,にしこくらえきまえ,北九州市小倉北区大門一丁目１番１号先,33.887101,130.873036
福岡県,北九州市,小倉北警察署前,こくらきたけいさつしょまえ,北九州市小倉北区大門一丁目６番１９号先,33.883457,130.872156
福岡県,北九州市,小倉北区役所庁舎前,こくらきたくやくしょちょうしゃまえ,北九州市小倉北区大手町１番１号先,33.880673,130.874344
福岡県,北九州市,黒崎２丁目交差点,くろさきにちょうめこうさてん,北九州市八幡西区黒崎三丁目１番７号先,33.865057,130.765984
福岡県,北九州市,黒崎４丁目交差点,くろさきよんちょうめこうさてん,北九州市八幡西区黒崎三丁目２番８号先 ,33.864267,130.765857
福岡県,北九州市,熊手３丁目交差点,くまてさんちょうめこうさてん,北九州市八幡西区黒崎四丁目１番８号先,33.863474,130.765725
福岡県,北九州市,岸の浦２丁目交差点,きしのうらにちょうめこうさてん,北九州市八幡西区岡田町２番２０号先,33.862325,130.765518
福岡県,久留米市,西鉄久留米駅前交差点,にしてつくるめえきまえこうさてん,久留米市東町４２番地２１先 ,33.313077,130.520794
福岡県,久留米市,六ツ門交差点,むつもんこうさてん,久留米市日吉町１６番地２４先,33.314531,130.512703
佐賀県,佐賀市,佐賀駅前交番西交差点,さがえきまえこうばんにしこうさてん,佐賀市駅前中央一丁目 ,33.261858,130.298357
佐賀県,佐賀市,SAGAアリーナ前交差点,さがありーなまえこうさてん,佐賀市日の出一丁目 ,33.274301,130.293765
佐賀県,佐賀市,佐賀駅北口北交差点,さがえききたぐちきたこうさてん,佐賀市駅前中央二丁目,33.267066,130.296857
長崎県,時津町,西時津バス停先交差点,にしとぎつばすていさきこうさてん,西彼杵郡時津町浜田郷,32.835487,129.856924
熊本県,熊本市,身体障害者福祉センター前横断路,しんたいしょうがいしゃふくしせんたーまえおうだんろ,熊本市東区長嶺南二丁目３番２号,32.808366,130.767091
熊本県,熊本市,市電健軍終点交差点,しでんけんぐんしゅうてんこうさてん,熊本市東区若葉一丁目２番７号,32.778351,130.761374
大分県,大分市,顕徳町1丁目,けんとくまちいっちょうめ,大分市金池町一丁目,33.232248,131.611939
大分県,大分市,大分駅南口広場,おおいたえきみなみぐちひろば,大分市金池南一丁目,33.231515,131.605706
宮崎県,宮崎市,宮崎駅前交差点,みやざきえきまえこうさてん,宮崎市錦町１番１１号先,31.91568,131.43062
宮崎県,宮崎市,宮崎駅西口広場前交差点,みやざきえきにしぐちひろばまえこうさてん,宮崎市老松二丁目１番１７号先,31.915005,131.430461
鹿児島県,鹿児島市,警察本部前交差点,けいさつほんぶまえこうさてん,鹿児島市鴨池新町７番４号,31.55866,130.557121
鹿児島県,鹿児島市,谷山小学校前交差点,たにやましょうがっこうまえこうさてん,鹿児島市谷山中央一丁目４９６２番地,31.521336,130.516791
鹿児島県,鹿児島市,南清見交差点,みなみきよみこうさてん,鹿児島市谷山中央二丁目４１９２番地１,31.525723,130.519534
鹿児島県,鹿児島市,谷山駅南交差点,たにやまえきみなみこうさてん,鹿児島市谷山中央一丁目４０４９番地１,31.525711,130.517446
沖縄県,那覇市,県庁北口交差点,けんちょうきたぐちこうさてん,那覇市久茂地一丁目１番１号 ,26.213655,127.680471
沖縄県,那覇市,牧志一丁目交差点,まきしいっちょうめこうさてん,那覇市牧志一丁目９番１号,26.216387,127.683781
沖縄県,那覇市,視覚障害者福祉センター前横断路,しかくしょうがいしゃふくしせんたーまえおうだんろ,那覇市松尾二丁目１５番２９号,26.21285,127.685391
